[  
    {  
        "lat": 14.131341,  
        "lon": 17.132695,  
        "title": "Élection A",  
        "contenus": "Le 28 novembre 2024, une pirogue transportant près de 100 personnes a chaviré sur le lac Tchad, entraînant la mort d'une vingtaine de voyageurs. Maurice Kamto, président du MRC, exprime ses condoléances et souligne la nécessité pour le gouvernement d'améliorer la sécurité des transports sur le lac.",  
        "category": "Politique"  
    },  
    {  
        "lat": 4.0511,  
        "lon": 9.7085,  
        "title": "Événement Social",  
        "contenus": "Le 27 novembre 2024, Me Tamfu Richard, avocat à Douala, a été brutalement interpellé par des gendarmes lors d'une manifestation pacifique, suscitant une indignation générale.",  
        "category": "Social"  
    },  
    {  
        "lat": 10.639432,  
        "lon": 14.279980,  
        "title": "Progrès Économique",  
        "contenus": "Maurice Kamto, président du MRC, dénonce le silence du président de la République face à la résurgence de Boko Haram dans l'Extrême Nord.",  
        "category": "Économique"  
    },  
    {  
        "lat": 4.5667,  
        "lon": 14.3833,  
        "title": "Protestation",  
        "contenus": "Maurice Kamto exprime ses condoléances aux familles des victimes des éboulements survenus à Batouri.",  
        "category": "Politique"  
    },  
    {  
        "lat": 3.6932,  
        "lon": 11.1497,  
        "title": "Conférence",  
        "contenus": "Le Sous-préfet d'Idabato, M. Roland Ewane, a été enlevé par des assaillants.",  
        "category": "Social"  
    },  
    {  
        "lat": 12.5973,  
        "lon": 14.4556,  
        "title": "Naufrage de 18 morts",  
        "contenus": "Division de Darack dans le Logone et Chari : naufrage de 18 morts.",  
        "category": "Social"  
    },  
    {  
        "lat": 6.6004,  
        "lon": 10.6698,  
        "title": "Interdiction de voter",  
        "contenus": "La CBC (Convention Baptiste du Cameroun) interdit aux élèves de voter dans la ville de Nkambé.",  
        "category": "Politique"  
    },  
    {  
        "lat": 5.9631,  
        "lon": 10.1591,  
        "title": "Libération de l'ancien maire",  
        "contenus": "Libération de l'ancien Maire Abel Laugsi à Bamenda.",  
        "category": "Politique"  
    },  
    {  
        "lat": 5.9631,  
        "lon": 10.1591,  
        "title": "Incendies de taxis",  
        "contenus": "Incendies de deux taxis dans la ville de Bamenda par les séparatistes.",  
        "category": "Social"  
    },  
    {  
        "lat": 4.5334,  
        "lon": 8.4321,  
        "title": "Enlèvement d'un sous-préfet",  
        "contenus": "Enlèvement du sous-préfet de Idabato dans le département du Ndian.",  
        "category": "Politique"  
    },  
    {  
        "lat": 4.0815,  
        "lon": 9.3564,  
        "title": "Protestation à la CDC",  
        "contenus": "Les employés de la CDC demandent leurs droits à Tiko.",  
        "category": "Social"  
    },  
    {  
        "lat": 3.8667,  
        "lon": 11.5167,  
        "title": "Enlèvement d'une fillette",  
        "contenus": "Une fillette de 15 ans, Akono Anna Claira, enlevée à Mfou.",  
        "category": "Social"  
    },  
    {  
        "lat": 3.848,  
        "lon": 11.5021,  
        "title": "Disparition d'un employé",  
        "contenus": "Thierry Dong en service à la SGS est porté disparu.",  
        "category": "Social"  
    },  
    {  
        "lat": 3.848,  
        "lon": 11.5021,  
        "title": "Un enfant tue son père",  
        "contenus": "Un enfant de 11 ans tue son père, moto-taximen.",  
        "category": "Social"  
    },  
    {  
        "lat": 3.5185,  
        "lon": 11.5021,  
        "title": "Accident à Mbalmayo",  
        "contenus": "Terrible accident de la route à Mbalmayo tuant un élève.",  
        "category": "Social"  
    },  
    {  
        "lat": 5.4461,  
        "lon": 10.0626,  
        "title": "Accident sur l'axe Yaoundé-Bafoussam",  
        "contenus": "Plusieurs morts dans un accident sur l'axe Yaoundé-Bafoussam.",  
        "category": "Social"  
    },  
    {  
        "lat": 3.848,  
        "lon": 11.5021,  
        "title": "Employé tué à la CRTV",  
        "contenus": "Un employé de la CRTV a été tué à l'entrée de son lieu de travail.",  
        "category": "Social"  
    },  
    {  
        "lat": 4.0511,  
        "lon": 9.7679,  
        "title": "Incendie au marché PK14",  
        "contenus": "Incendie au marché PK14 à Douala.",  
        "category": "Social"  
    },  
    {  
        "lat": 3.848,  
        "lon": 11.5021,  
        "title": "Femme abandonnée son enfant",  
        "contenus": "Une femme abandonnée son enfant au quartier Manguier à Yaoundé.",  
        "category": "Social"  
    },  
    {  
        "lat": 6.0000,  
        "lon": 10.1591,  
        "title": "Enlèvement de Joko Frida",  
        "contenus": "Enlèvement et assassinat éventuel de la présidente de la section WCPDM Mezam Joko Frida.",  
        "category": "Politique"  
    },  
    {  
        "lat": 4.5000,  
        "lon": 9.0500,  
        "title": "Service à la mémoire",  
        "contenus": "Service à la mémoire des 26 civils et d'une force gouvernementale tués par les séparatistes.",  
        "category": "Politique"  
    },  
    {  
        "lat": 4.1552,  
        "lon": 9.2312,  
        "title": "Manifestation à Buea",  
        "contenus": "Manifestation des jeunes à Buea plaidant pour la libération de leurs fils et maris arrêtés.",  
        "category": "Social"  
    },  
    {  
        "lat": 7.0333,  
        "lon": 10.7167,  
        "title": "RELEVE FOREST STORM IV",  
        "contenus": "MDP : BARAMINE. Dispositif d'embuscade offensive de longue durée déployé.",  
        "category": "Militaire"  
    },  
    {  
        "lat": 6.0667,  
        "lon": 10.4333,  
        "title": "TARGUETING A BABA 1",  
        "contenus": "Mes respects mon colonel. HVRC. Manœuvres préemptives de harcèlement de l'OPFOR.",  
        "category": "Militaire"  
    },  
    {  
        "lat": 4.1550,  
        "lon": 9.2318,  
        "title": "TRAQUE ET CIBLAGE D'UN RELAIS TERRORISTE",  
        "contenus": "Identifier, localiser et interpeller un individu suspecté de fournir un soutien logistique aux groupes terroristes.",  
        "category": "Militaire"  
    },  
    {  
        "lat": 7.8167,  
        "lon": 12.2667,  
        "title": "EMBUSCADE SUR RENSEIGNEMENT",  
        "contenus": "Embuscade de nuit dans le secteur Mayo-Baleo.",  
        "category": "Militaire"  
    },
    {
        "lat": 3.8667,
        "lon": 11.5167,
        "title": "DÉTENUS PRIS À PARTI PAR LA POPULATION",
        "contenus": "02 détenus de la prison Centrale de Kondengui pris à partie par les populations du quartier Anguissa. Ils avaient pour habitude d'occuper l'auberge Élisabeth située à 100m du carrefour en allant vers le quartier Belibi. C'était leur lieu de rencontre avec des filles. Cette fois, ils avaient rendez-vous avec des fournisseurs d'armes en complicité avec des gardiens de prison qui ont fui.",
        "category": "Social"
    } ,
    {
        "lat": 4.5167,
        "lon": 12.0333,
        "title": "Tensions à Nkoteng : Incendie des plantations de la SOSUCAM",
        "contenus": "À Nkoteng, des affrontements ont éclaté après la répression d’une grève des travailleurs de la SOSUCAM par les forces de l’ordre. En réaction, des manifestants ont incendié des plantations de l’entreprise, dénonçant leurs conditions de travail et exigeant de meilleures rémunérations.",
        "category": "Social"
    } 
]